 [
  {
  "id": 0,
  "name": "Nick Balestra",
  "twitter": "@nickbalestra",
  "birthCountry": "ğŸ‡¨ğŸ‡­",
  "year": 2017,
  "event": "Frontenders Meetup",
  "location": "Lugano",
  "city": "London",
  "description": ""
  },
  {
  "id": 1,
  "name": "MichaÅ‚ KaÅ‚uÅ¼ny",
  "twitter": "@justMaku",
  "birthCountry": "ğŸ‡µğŸ‡±",
  "year": 2016,
  "event": "",
  "location": "Berlin",
  "city": "Berlin",
  "description": ""
  },
  {
  "id": 2,
  "name": "Luca Torella",
  "twitter": "@lucatorella",
  "birthCountry": "ğŸ‡¨ğŸ‡­",
  "year": 2016,
  "event": "App Builders",
  "location": "Zurich",
  "city": "Zurich",
  "description": "Luca and I are currently colleagues at Scandit."
  },
  {
  "id": 3,
  "name": "Matej BalantiÄ",
  "twitter": "@skavt",
  "birthCountry": "ğŸ‡­ğŸ‡·",
  "year": 2016,
  "event": "The Swift Alps",
  "location": "Crans-Montana",
  "city": "Berlin",
  "description": ""
  },
  {
  "id": 4,
  "name": "Eliezer TalÃ³n",
  "twitter": "@elitalon",
  "birthCountry": "ğŸ‡ªğŸ‡¸",
  "year": 2016,
  "event": "App Builders",
  "location": "Zurich",
  "city": "Zurich",
  "description": ""
  },
  {
  "id": 5,
  "name": "Roy Marmelstein",
  "twitter": "@marmelroy",
  "birthCountry": "ğŸ‡¬ğŸ‡§",
  "year": 2016,
  "event": "App Builders",
  "location": "Zurich",
  "city": "Zurich",
  "description": ""
  },
  {
  "id": 6,
  "name": "Alexandre Bantz",
  "twitter": "@Performat",
  "birthCountry": "ğŸ‡«ğŸ‡·",
  "year": 2016,
  "event": "",
  "location": "Berlin",
  "city": "Berlin",
  "description": ""
  },
  {
  "id": 7,
  "name": "Ivan Morgillo",
  "twitter": "@hamen",
  "birthCountry": "ğŸ‡®ğŸ‡¹",
  "year": 2016,
  "event": "App Builders",
  "location": "Zurich",
  "city": "Berlin",
  "description": ""
  },
  {
  "id": 8,
  "name": "Ellen Shapiro",
  "twitter": "@designatednerd",
  "birthCountry": "ğŸ‡ºğŸ‡¸",
  "year": 2016,
  "event": "Pragma Conf",
  "location": "Verona",
  "city": "Chicago",
  "description": ""
  },
  {
  "id": 9,
  "name": "Florent Pillet",
  "twitter": "@fpillet",
  "birthCountry": "ğŸ‡«ğŸ‡·",
  "year": 2016,
  "event": "Pragma Conf",
  "location": "Verona",
  "city": "Antibes",
  "description": ""
  },
  {
  "id": 10,
  "name": "Marin Todorov",
  "twitter": "@icanzilb",
  "birthCountry": "ğŸ‡§ğŸ‡¬",
  "year": 2015,
  "event": "Pragma Conf",
  "location": "Florence",
  "city": "Berlin",
  "description": ""
  },
  {
  "id": 11,
  "name": "Damian Mehers",
  "twitter": "@DamianMehers",
  "birthCountry": "ğŸ‡¨ğŸ‡­",
  "year": 2016,
  "event": "App Builders",
  "location": "Geneva",
  "city": "Geneva",
  "description": ""
  },
  {
  "id": 12,
  "name": "Max BÃ¤umle",
  "twitter": "@maxbaeumle",
  "birthCountry": "ğŸ‡©ğŸ‡ª",
  "year": 2014,
  "event": "Pebble Developers Retreat",
  "location": "Mountain View",
  "city": "Frankfurt",
  "description": "We live a few hundreds km away but we met a few thousands km away from our homes."
  },
  {
  "id": 13,
  "name": "Kaleb Butt",
  "twitter": "@Kaleb_Butt",
  "birthCountry": "ğŸ‡¨ğŸ‡¦",
  "year": 2014,
  "event": "WWDC 2014",
  "location": "San Francisco",
  "city": "Vancouver",
  "description": ""
  },
  {
  "id": 14,
  "name": "Meghan Kane",
  "twitter": "@meghafon",
  "birthCountry": "ğŸ‡ºğŸ‡¸",
  "year": 2016,
  "event": "",
  "location": "Berlin",
  "city": "Berlin",
  "description": ""
  },
  {
  "id": 15,
  "name": "Nate Chiger",
  "twitter": "@natechiger",
  "birthCountry": "ğŸ‡ºğŸ‡¸",
  "year": 2014,
  "event": "WWDC 2014",
  "location": "San Francisco",
  "city": "New York",
  "description": ""
  },
  {
  "id": 16,
  "name": "Luca Scuderi",
  "twitter": "@lucascuderi",
  "birthCountry": "ğŸ‡¨ğŸ‡­",
  "year": 2014,
  "event": "",
  "location": "Zurich",
  "city": "Fribourg",
  "description": "Luca and I have organized multiple conferences together."
  },
  {
  "id": 17,
  "name": "Anthony S Geranio",
  "twitter": "@asg",
  "birthCountry": "ğŸ‡ºğŸ‡¸",
  "year": 2014,
  "event": "WWDC 2014",
  "location": "San Francisco",
  "city": "New York",
  "description": ""
  },
  {
  "id": 18,
  "name": "Nicolas Seriot",
  "twitter": "@nst021",
  "birthCountry": "ğŸ‡¨ğŸ‡­",
  "year": 2016,
  "event": "App Builders",
  "location": "Zurich",
  "city": "Geneva",
  "description": ""
  },
  {
  "id": 19,
  "name": "SeÃ¡n Labastille",
  "twitter": "@flufffel",
  "birthCountry": "ğŸ‡®ğŸ‡ª",
  "year": 2016,
  "event": "App Builders",
  "location": "Zurich",
  "city": "Zurich",
  "description": ""
  },
  {
  "id": 20,
  "name": "Geppy Parziale",
  "twitter": "@geppyp",
  "birthCountry": "ğŸ‡®ğŸ‡¹",
  "year": 2014,
  "event": "WWDC 2014",
  "location": "San Francisco",
  "city": "San Francisco",
  "description": ""
  },
  {
  "id": 21,
  "name": "Willow Alexander",
  "twitter": "@istx25",
  "birthCountry": "ğŸ‡¨ğŸ‡¦",
  "year": 2014,
  "event": "WWDC 2014",
  "location": "San Francisco",
  "city": "Montreal",
  "description": ""
  },
  {
  "id": 22,
  "name": "Massimo Oliviero",
  "twitter": "@maxoly",
  "birthCountry": "ğŸ‡®ğŸ‡¹",
  "year": 2015,
  "event": "Pragma Conf",
  "location": "Florence",
  "city": "Brescia",
  "description": ""
  },
  {
  "id": 23,
  "name": "Philipp Weber",
  "twitter": "@philhinco",
  "birthCountry": "ğŸ‡¨ğŸ‡­",
  "year": 2016,
  "event": "App Builders",
  "location": "Zurich",
  "city": "Zurich",
  "description": ""
  },
  {
  "id": 24,
  "name": "Arik Aleph",
  "twitter": "@arikaleph",
  "birthCountry": "ğŸ‡®ğŸ‡±",
  "year": 2014,
  "event": "WWDC 2014",
  "location": "San Francisco",
  "city": "Palo Alto",
  "description": ""
  },
  {
  "id": 25,
  "name": "Conrad Kramer",
  "twitter": "@conradev",
  "birthCountry": "ğŸ‡ºğŸ‡¸",
  "year": 2014,
  "event": "WWDC 2014",
  "location": "San Francisco",
  "city": "San Francisco",
  "description": ""
  },
  {
  "id": 26,
  "name": "Zach Waldowski",
  "twitter": "@zwaldowski",
  "birthCountry": "ğŸ‡ºğŸ‡¸",
  "year": 2015,
  "event": "NSConf 7",
  "location": "London",
  "city": "Atlanta",
  "description": ""
  },
  {
  "id": 27,
  "name": "Gilad Ronat",
  "twitter": "@giladronat",
  "birthCountry": "ğŸ‡ºğŸ‡¸",
  "year": 2014,
  "event": "",
  "location": "Zurich",
  "city": "San Luis",
  "description": ""
  },
  {
  "id": 28,
  "name": "Nick Frey",
  "twitter": "@nickfrey",
  "birthCountry": "ğŸ‡ºğŸ‡¸",
  "year": 2014,
  "event": "WWDC 2014",
  "location": "San Francisco",
  "city": "San Francisco",
  "description": ""
  },
  {
  "id": 29,
  "name": "John Sundell",
  "twitter": "@johnsundell",
  "birthCountry": "ğŸ‡ºğŸ‡¸",
  "year": 2016,
  "event": "App Builders",
  "location": "Zurich",
  "city": "Krakow",
  "description": ""
  },
  {
  "id": 30,
  "name": "Simone Marinelli",
  "twitter": "@marinellisi",
  "birthCountry": "ğŸ‡¨ğŸ‡­",
  "year": 2013,
  "event": "",
  "location": "Bellinzona",
  "city": "Gudo",
  "description": "Simone is one of the first person that I met thanks to our common passion for Apple."
  },
  {
  "id": 31,
  "name": "Michael Sayman",
  "twitter": "@michaelsayman",
  "birthCountry": "ğŸ‡µğŸ‡ª",
  "year": 2014,
  "event": "WWDC 2014",
  "location": "San Francisco",
  "city": "Redwood City",
  "description": ""
  },
  {
  "id": 32,
  "name": "Lorenzo Patocchi",
  "twitter": "@MrPatol",
  "birthCountry": "ğŸ‡¨ğŸ‡­",
  "year": 2013,
  "event": "",
  "location": "Lamone",
  "city": "Lugano",
  "description": "Lorenzo hired me for my first iOS internship."
  },
  {
  "id": 33,
  "name": "Maxim Cramer",
  "twitter": "@mennenia",
  "birthCountry": "ğŸ‡¬ğŸ‡§",
  "year": 2016,
  "event": "The Swift Alps",
  "location": "Crans-Montana",
  "city": "London",
  "description": ""
  },
  {
  "id": 34,
  "name": "Arno Appenzeller",
  "twitter": "@arno_app",
  "birthCountry": "ğŸ‡©ğŸ‡ª",
  "year": 2016,
  "event": "App Builders",
  "location": "Zurich",
  "city": "Karlsruhe",
  "description": ""
  },
  {
  "id": 35,
  "name": "Nicola Giancecchi",
  "twitter": "@nicorsm",
  "birthCountry": "ğŸ‡¸ğŸ‡²",
  "year": 2014,
  "event": "WWDC 2014",
  "location": "San Francisco",
  "city": "San Marino",
  "description": ""
  },
  {
  "id": 36,
  "name": "Coulton Vento",
  "twitter": "@coultonvento",
  "birthCountry": "ğŸ‡ºğŸ‡¸",
  "year": 2014,
  "event": "WWDC 2014",
  "location": "San Francisco",
  "city": "New York",
  "description": ""
  },
  {
  "id": 37,
  "name": "Ari Weinstein",
  "twitter": "@AriX",
  "birthCountry": "ğŸ‡ºğŸ‡¸",
  "year": 2014,
  "event": "WWDC 2014",
  "location": "San Francisco",
  "city": "San Francisco",
  "description": ""
  },
  {
  "id": 38,
  "name": "Joel Levin",
  "twitter": "@joeldev",
  "birthCountry": "ğŸ‡ºğŸ‡¸",
  "year": 2014,
  "event": "WWDC 2014",
  "location": "San Francisco",
  "city": "San Francisco",
  "description": ""
  },
  {
  "id": 39,
  "name": "Alexander Repty",
  "twitter": "@arepty",
  "birthCountry": "ğŸ‡©ğŸ‡ª",
  "year": 2015,
  "event": "NSConf 7",
  "location": "Leicester",
  "city": "Bremen",
  "description": ""
  },
  {
  "id": 40,
  "name": "Junior Bontognali",
  "twitter": "@bontoJR",
  "birthCountry": "ğŸ‡¨ğŸ‡­",
  "year": 2012,
  "event": "Apple Meetup",
  "location": "Mendrisio",
  "city": "Zurich",
  "description": "Thanks to Junior I entered the programming world. He taught me the basics of programming and he has been helping me to grow since we met."
  },
  {
  "id": 41,
  "name": "maxhasadhd",
  "twitter": "@Maximilian Litteral",
  "birthCountry": "ğŸ‡ºğŸ‡¸",
  "year": 2014,
  "event": "WWDC 2014",
  "location": "San Francisco",
  "city": "San Francisco",
  "description": ""
  },
  {
  "id": 42,
  "name": "Susanna Riccardi",
  "twitter": "@SusannaChuck",
  "birthCountry": "ğŸ‡®ğŸ‡¹",
  "year": 2015,
  "event": "University",
  "location": "Lugano",
  "city": "Lugano",
  "description": "ğŸ’–"
  },
  {
  "id": 43,
  "name": "Leonard Pauli",
  "twitter": "@LeonardPauli",
  "birthCountry": "ğŸ‡¸ğŸ‡ª",
  "year": 2014,
  "event": "WWDC 2014",
  "location": "San Francisco",
  "city": "San Francisco",
  "description": ""
  },
  {
  "id": 44,
  "name": "Tyler Flowers",
  "twitter": "@tdflowers",
  "birthCountry": "ğŸ‡ºğŸ‡¸",
  "year": 2014,
  "event": "WWDC 2014",
  "location": "San Francisco",
  "city": "San Francisco",
  "description": ""
  },
  {
  "id": 45,
  "name": "Peter Steinberger",
  "twitter": "@steipete",
  "birthCountry": "ğŸ‡¦ğŸ‡¹",
  "year": 2015,
  "event": "NSConf 7",
  "location": "Leicester",
  "city": "Wien",
  "description": ""
  },
  {
  "id": 46,
  "name": "Robert van Hoesel",
  "twitter": "@robertvhoesel",
  "birthCountry": "ğŸ‡³ğŸ‡±",
  "year": 2013,
  "event": "",
  "location": "Amsterdam",
  "city": "Amsterdam",
  "description": ""
  },
  {
  "id": 47,
  "name": "Andrea Guarisco",
  "twitter": "@luhna_ch",
  "birthCountry": "ğŸ‡¨ğŸ‡­",
  "year": 2013,
  "event": "",
  "location": "Lugano",
  "city": "Lugano",
  "description": "Andrea is a designer and he has helped me a lot in improving my design skills."
  },
  {
  "id": 48,
  "name": "Radek Pietruszewski",
  "twitter": "@radexp",
  "birthCountry": "ğŸ‡µğŸ‡±",
  "year": 2014,
  "event": "WWDC 2014",
  "location": "San Francisco",
  "city": "San Francisco",
  "description": ""
  },
  {
  "id": 49,
  "name": "Natasha Murashev",
  "twitter": "@NatashaTheRobot",
  "birthCountry": "ğŸ‡ºğŸ‡¸",
  "year": 2016,
  "event": "App Builders",
  "location": "Zurich",
  "city": "Tokyo",
  "description": ""
  },
  {
  "id": 50,
  "name": "Ash Bhat",
  "twitter": "@theashbhat",
  "birthCountry": "ğŸ‡ºğŸ‡¸",
  "year": 2016,
  "event": "WWDC 2014",
  "location": "San Francisco",
  "city": "Palo Alto",
  "description": ""
  },
  {
  "id": 51,
  "name": "Max Kramer",
  "twitter": "@UINT_MAX",
  "birthCountry": "ğŸ‡¬ğŸ‡§",
  "year": 2016,
  "event": "",
  "location": "Berlin",
  "city": "Berlin",
  "description": ""
  },
  {
  "id": 52,
  "name": "Eytan Schulman",
  "twitter": "@eytanschulman",
  "birthCountry": "ğŸ‡®ğŸ‡±",
  "year": 2014,
  "event": "WWDC 2014",
  "location": "San Francisco",
  "city": "",
  "description": ""
  },
  {
  "id": 53,
  "name": "LukÃ¡Å¡ Petr",
  "twitter": "@luksape",
  "birthCountry": "ğŸ‡¨ğŸ‡¿",
  "year": 2016,
  "event": "App Builders",
  "location": "Zurich",
  "city": "Prague",
  "description": ""
  },
  {
  "id": 54,
  "name": "Alexsander Akers",
  "twitter": "@a2",
  "birthCountry": "ğŸ‡ºğŸ‡¸",
  "year": 2014,
  "event": "Pebble Developers Retreat",
  "location": "Mountain View",
  "city": "Berlin",
  "description": "Alex has helped me a lot and has been a daily inspiration since I met him."
  },
  {
  "id": 55,
  "name": "Ryan Orbuch",
  "twitter": "@orbuch",
  "birthCountry": "ğŸ‡ºğŸ‡¸",
  "year": 2014,
  "event": "WWDC 2014",
  "location": "San Francisco",
  "city": "San Francisco",
  "description": ""
  },
  {
  "id": 56,
  "name": "Lander Van Breda",
  "twitter": "@lvanbreda",
  "birthCountry": "ğŸ‡§ğŸ‡ª",
  "year": 2015,
  "event": "",
  "location": "Zurich",
  "city": "Zurich",
  "description": ""
  },
  {
  "id": 57,
  "name": "Tobias Conradi",
  "twitter": "@toco91",
  "birthCountry": "ğŸ‡©ğŸ‡ª",
  "year": 2015,
  "event": "NSConf 7",
  "location": "Leicester",
  "city": "Hamburg",
  "description": ""
  },
  {
  "id": 58,
  "name": "Steve Scott",
  "twitter": "@macdevnet",
  "birthCountry": "ğŸ‡¬ğŸ‡§",
  "year": 2015,
  "event": "NSConf 7",
  "location": "Leicester",
  "city": "Tetbury",
  "description": ""
  },
  {
  "id": 59,
  "name": "Ayaka Nonaka",
  "twitter": "@ayanonagon",
  "birthCountry": "ğŸ‡ºğŸ‡¸",
  "year": 2016,
  "event": "Pragma Conf",
  "location": "Verona",
  "city": "San Francisco",
  "description": ""
  },
  {
  "id": 60,
  "name": "Dylan Marriott",
  "twitter": "@dylan36032",
  "birthCountry": "ğŸ‡¨ğŸ‡­",
  "year": 2014,
  "event": "WatchKit Hackathon",
  "location": "Zurich",
  "city": "Zurich",
  "description": "Dylan and I organized the first WatchKit hackhaton ever in Switzerland."
  },
  {
  "id": 61,
  "name": "Tian Zhang",
  "twitter": "@KhaosT",
  "birthCountry": "ğŸ‡ºğŸ‡¸",
  "year": 2014,
  "event": "WWDC 2014",
  "location": "San Francisco",
  "city": "San Francisco",
  "description": ""
  },
  {
  "id": 62,
  "name": "Lars Schwegmann",
  "twitter": "@larsschwegmann",
  "birthCountry": "ğŸ‡©ğŸ‡ª",
  "year": 2014,
  "event": "WWDC 2014",
  "location": "San Francisco",
  "city": "MÃ»nchen",
  "description": ""
  },
  {
  "id": 63,
  "name": "Laurin Brandner",
  "twitter": "@lbrndnr",
  "birthCountry": "ğŸ‡¨ğŸ‡­",
  "year": 2015,
  "event": "",
  "location": "Zurich",
  "city": "Zurich",
  "description": ""
  },
  {
  "id": 64,
  "name": "Erik van der Plas",
  "twitter": "@erikvdplas",
  "birthCountry": "ğŸ‡³ğŸ‡±",
  "year": 2014,
  "event": "WWDC 2014",
  "location": "San Francisco",
  "city": "Haarlem",
  "description": ""
  },
  {
  "id": 65,
  "name": "Veeral Patel",
  "twitter": "@vral",
  "birthCountry": "ğŸ‡ºğŸ‡¸",
  "year": 2014,
  "event": "WWDC 2014",
  "location": "San Francisco",
  "city": "Stanford",
  "description": ""
  },
  {
  "id": 66,
  "name": "Daniel Petri",
  "twitter": "@stocc1",
  "birthCountry": "ğŸ‡©ğŸ‡ª",
  "year": 2014,
  "event": "WWDC 2014",
  "location": "San Francisco",
  "city": "Aachen",
  "description": ""
  },
  {
  "id": 67,
  "name": "Luiis Franceschi",
  "twitter": "@luiisfranceschi",
  "birthCountry": "ğŸ‡¨ğŸ‡­",
  "year": 2013,
  "event": "",
  "location": "Locarno",
  "city": "Zurich",
  "description": ""
  },
  {
  "id": 68,
  "name": "Adrian Kosmaczewski",
  "twitter": "@akosma",
  "birthCountry": "ğŸ‡¦ğŸ‡·",
  "year": 2015,
  "event": "FIFA TMS",
  "location": "Zurich",
  "city": "Zurich",
  "description": "Adrian and I worked together during summer 2015. Heâ€™s one of the most knowledgeable person I know."
  },
  {
  "id": 69,
  "name": "Simon TÃ¤nnler",
  "twitter": "@simontaen",
  "birthCountry": "ğŸ‡¨ğŸ‡­",
  "year": 2016,
  "event": "App Builders",
  "location": "Zurich",
  "city": "Zurich",
  "description": ""
  },
  {
  "id": 70,
  "name": "Anastasiia Voitova",
  "twitter": "@vixentael",
  "birthCountry": "ğŸ‡ºğŸ‡¦",
  "year": 2016,
  "event": "App Builders",
  "location": "Zurich",
  "city": "Kyev",
  "description": ""
  },
  {
  "id": 71,
  "name": "Mert Dumenci",
  "twitter": "@mertdumenci",
  "birthCountry": "ğŸ‡¹ğŸ‡·",
  "year": 2014,
  "event": "WWDC 2014",
  "location": "San Francisco",
  "city": "Atlanta",
  "description": ""
  },
  {
  "id": 72,
  "name": "Jeroen van Rijn",
  "twitter": "@Jeroen0704",
  "birthCountry": "ğŸ‡³ğŸ‡±",
  "year": 2014,
  "event": "WWDC 2014",
  "location": "San Francisco",
  "city": "Hilvarenbeek",
  "description": ""
  },
  {
  "id": 73,
  "name": "Simone Ferrini",
  "twitter": "@Simone_Ferrini",
  "birthCountry": "ğŸ‡®ğŸ‡¹",
  "year": 2016,
  "event": "Pragma Conf",
  "location": "Verona",
  "city": "London",
  "description": ""
  },
  {
  "id": 74,
  "name": "Sally Shepard",
  "twitter": "@mostgood",
  "birthCountry": "ğŸ‡¬ğŸ‡§",
  "year": 2016,
  "event": "App Builders",
  "location": "Zurich",
  "city": "London",
  "description": ""
  },
  {
  "id": 75,
  "name": "Vinh P Dinh",
  "twitter": "@vpdn",
  "birthCountry": "ğŸ‡©ğŸ‡ª",
  "year": 2015,
  "event": "WatchKit Hackathon",
  "location": "Zurich",
  "city": "Offenburg",
  "description": ""
  },
  {
  "id": 76,
  "name": "Pedro PiÃ±era BuendÃ­a",
  "twitter": "@pepibumur",
  "birthCountry": "ğŸ‡ªğŸ‡¸",
  "year": 2016,
  "event": "The Swift Alps",
  "location": "Crans-Montana",
  "city": "Berlin",
  "description": ""
  },
  {
  "id": 77,
  "name": "Niklas Riekenbrauck",
  "twitter": "@nikriek",
  "birthCountry": "ğŸ‡©ğŸ‡ª",
  "year": 2016,
  "event": "HackZurich Hackathon",
  "location": "Zurich",
  "city": "Berlin",
  "description": ""
  },
  {
  "id": 78,
  "name": "Matthew Sinclair",
  "twitter": "@matthewsinclair",
  "birthCountry": "ğŸ‡¦ğŸ‡º",
  "year": 2016,
  "event": "",
  "location": "Berlin",
  "city": "London",
  "description": ""
  },
  {
  "id": 79,
  "name": "Samuel Giddins",
  "twitter": "@segiddins",
  "birthCountry": "ğŸ‡ºğŸ‡¸",
  "year": 2016,
  "event": "",
  "location": "Berlin",
  "city": "Chicago",
  "description": ""
  },
  {
  "id": 80,
  "name": "Matthias Hauswirth",
  "twitter": "@mathau",
  "birthCountry": "ğŸ‡©ğŸ‡ª",
  "year": 2015,
  "event": "USI",
  "location": "Lugano",
  "city": "Lugano",
  "description": ""
  },
  {
  "id": 81,
  "name": "Geoffroy Baylaender",
  "twitter": "@gbaylaender",
  "birthCountry": "ğŸ‡¨ğŸ‡­",
  "year": 2015,
  "event": "Frontenders Meetup",
  "location": "Bellinzona",
  "city": "Lugano",
  "description": ""
  },
  {
  "id": 82,
  "name": "Sebastian Vieira",
  "twitter": "@seviu",
  "birthCountry": "ğŸ‡¨ğŸ‡­",
  "year": 2016,
  "event": "App Builders",
  "location": "Zurich",
  "city": "Zurich",
  "description": ""
  },
  {
  "id": 83,
  "name": "JP Simard",
  "twitter": "@simjp",
  "birthCountry": "ğŸ‡¨ğŸ‡¦",
  "year": 2016,
  "event": "App Builders",
  "location": "Zurich",
  "city": "San Francisco",
  "description": ""
  },
  {
  "id": 84,
  "name": "Masiar Babazadeh",
  "twitter": "@masiarb",
  "birthCountry": "ğŸ‡¨ğŸ‡­",
  "year": 2015,
  "event": "USI",
  "location": "Lugano",
  "city": "Lugano",
  "description": ""
  },
  {
  "id": 85,
  "name": "Yuriy Tymchuk",
  "twitter": "@yuriy_tymchuk",
  "birthCountry": "ğŸ‡ºğŸ‡¦",
  "year": 2015,
  "event": "USI",
  "location": "Lugano",
  "city": "Lugano",
  "description": ""
  },
  {
  "id": 86,
  "name": "Aron Fiechter",
  "twitter": "@AronFiechter",
  "birthCountry": "ğŸ‡¨ğŸ‡­",
  "year": 2015,
  "event": "USI",
  "location": "Lugano",
  "city": "Lugano",
  "description": ""
  },
  {
  "id": 87,
  "name": "Micah Benn",
  "twitter": "@micahbenn",
  "birthCountry": "ğŸ‡ºğŸ‡¸",
  "year": 2015,
  "event": "HackZurich Hackathon",
  "location": "Zurich",
  "city": "Zurich",
  "description": ""
  },
  {
  "id": 88,
  "name": "Daniele Lo Preiato",
  "twitter": "@lopreiatodan",
  "birthCountry": "ğŸ‡®ğŸ‡¹",
  "year": 2015,
  "event": "USI",
  "location": "Lugano",
  "city": "Lugano",
  "description": ""
  },
  {
  "id": 89,
  "name": "Lara Bruseghini",
  "twitter": "@hypocryptic",
  "birthCountry": "ğŸ‡®ğŸ‡¹",
  "year": 2015,
  "event": "USI",
  "location": "Lugano",
  "city": "Lugano",
  "description": ""
  },
  {
  "id": 90,
  "name": "Michele Lanza",
  "twitter": "@lanzamichele",
  "birthCountry": "ğŸ‡®ğŸ‡¹",
  "year": 2015,
  "event": "USI",
  "location": "Lugano",
  "city": "Lugano",
  "description": ""
  },
  {
  "id": 91,
  "name": "Boris BÃ¼gling",
  "twitter": "@NeoNacho",
  "birthCountry": "ğŸ‡©ğŸ‡ª",
  "year": 2016,
  "event": "App Builders",
  "location": "Zurich",
  "city": "Berlin",
  "description": ""
  },
  {
  "id": 92,
  "name": "Graham Lee",
  "twitter": "@iwasleeg",
  "birthCountry": "ğŸ‡¬ğŸ‡§",
  "year": 2016,
  "event": "App Builders",
  "location": "Zurich",
  "city": "Warwick",
  "description": ""
  },
  {
  "id": 93,
  "name": "Hernan Pelassini",
  "twitter": "@hernanp",
  "birthCountry": "ğŸ‡¦ğŸ‡·",
  "year": 2016,
  "event": "App Builders",
  "location": "Zurich",
  "city": "San Francisco",
  "description": ""
  },
  {
  "id": 94,
  "name": "Felix Krause",
  "twitter": "@KrauseFx",
  "birthCountry": "ğŸ‡¦ğŸ‡¹",
  "year": 2015,
  "event": "NSConf 7",
  "location": "Leicester",
  "city": "San Francisco",
  "description": ""
  },
  {
  "id": 95,
  "name": "Vikram Kriplaney",
  "twitter": "@krips",
  "birthCountry": "ğŸ‡®ğŸ‡³",
  "year": 2016,
  "event": "App Builders",
  "location": "Zurich",
  "city": "Zurich",
  "description": ""
  },
  {
  "id": 96,
  "name": "David RÃ¶nnqvist",
  "twitter": "@davidronnqvist",
  "birthCountry": "ğŸ‡¸ğŸ‡ª",
  "year": 2015,
  "event": "NSConf 7",
  "location": "Leicester",
  "city": "Stockholm",
  "description": ""
  },
  {
  "id": 97,
  "name": "Heiko Behrens",
  "twitter": "@HBerens",
  "birthCountry": "ğŸ‡©ğŸ‡ª",
  "year": 2014,
  "event": "Pebble Developers Retreat",
  "location": "Mountain View",
  "city": "Mountain View",
  "description": ""
  },
  {
  "id": 98,
  "name": "Adam Bell",
  "twitter": "@b3ll",
  "birthCountry": "ğŸ‡¨ğŸ‡¦",
  "year": 2014,
  "event": "WWDC 2014",
  "location": "San Francisco",
  "city": "San Francisco",
  "description": ""
  },
  {
  "id": 99,
  "name": "Sjors Snoeren",
  "twitter": "@sjorssnoeren",
  "birthCountry": "ğŸ‡³ğŸ‡±",
  "year": 2014,
  "event": "WWDC 2014",
  "location": "San Francisco",
  "city": "Amsterdam",
  "description": ""
  },
  {
  "id": 100,
  "name": "Tim Duckett",
  "twitter": "@timduckett",
  "birthCountry": "ğŸ‡¬ğŸ‡§",
  "year": 2016,
  "event": "App Builders",
  "location": "Zurich",
  "city": "Berlin",
  "description": ""
  },
  {
  "id": 101,
  "name": "Josh Bruce",
  "twitter": "@Brucey125",
  "birthCountry": "ğŸ‡¬ğŸ‡§",
  "year": 2014,
  "event": "WWDC 2014",
  "location": "San Francisco",
  "city": "Plymouth",
  "description": ""
  },
  {
  "id": 102,
  "name": "Brandon Boynton",
  "twitter": "@bboynton97",
  "birthCountry": "ğŸ‡ºğŸ‡¸",
  "year": 2014,
  "event": "WWDC 2014",
  "location": "San Francisco",
  "city": "Pendleton",
  "description": ""
  },
  {
  "id": 103,
  "name": "Marc Exposito",
  "twitter": "@ExspositoMarc",
  "birthCountry": "ğŸ‡ªğŸ‡¸",
  "year": 2014,
  "event": "WWDC 2014",
  "location": "San Francisco",
  "city": "Chicago",
  "description": ""
  },
  {
  "id": 104,
  "name": "Joan Molinas",
  "twitter": "@JoanMolinas",
  "birthCountry": "ğŸ‡ªğŸ‡¸",
  "year": 2014,
  "event": "WWDC 2014",
  "location": "San Francisco",
  "city": "Barcelona",
  "description": ""
  },
  {
  "id": 105,
  "name": "Gustaf Rosenblad",
  "twitter": "@rosecoder",
  "birthCountry": "ğŸ‡¸ğŸ‡ª",
  "year": 2014,
  "event": "WWDC 2014",
  "location": "San Francisco",
  "city": "Gothenburg",
  "description": ""
  },
  {
  "id": 106,
  "name": "Lennart Kerkvliet",
  "twitter": "@lennartkerkv",
  "birthCountry": "ğŸ‡³ğŸ‡±",
  "year": 2014,
  "event": "WWDC 2014",
  "location": "San Francisco",
  "city": "Amsterdam",
  "description": ""
  },
  {
  "id": 107,
  "name": "Rameez Remsudeen",
  "twitter": "@Remzr7",
  "birthCountry": "ğŸ‡¸ğŸ‡¬",
  "year": 2014,
  "event": "WWDC 2014",
  "location": "San Francisco",
  "city": "Pittsburgh",
  "description": ""
  },
  {
  "id": 108,
  "name": "Tosin Afolabi",
  "twitter": "@TosinAF",
  "birthCountry": "ğŸ‡³ğŸ‡¬",
  "year": 2014,
  "event": "WWDC 2014",
  "location": "San Francisco",
  "city": "San Francisco",
  "description": ""
  },
  {
  "id": 109,
  "name": "Grant Paul",
  "twitter": "@chpwn",
  "birthCountry": "ğŸ‡¨ğŸ‡¦",
  "year": 2015,
  "event": "NSConf 7",
  "location": "Leicester",
  "city": "San Francisco",
  "description": ""
  },
  {
  "id": 110,
  "name": "Eric Migicovsky",
  "twitter": "@ericmigi",
  "birthCountry": "ğŸ‡¨ğŸ‡¦",
  "year": 2014,
  "event": "Pebble Developers Retreat",
  "location": "Mountain View",
  "city": "Palo Alto",
  "description": ""
  },
  {
  "id": 111,
  "name": "Chris Eidhof",
  "twitter": "@chriseidhof",
  "birthCountry": "ğŸ‡©ğŸ‡ª",
  "year": 2015,
  "event": "Pragma Conf",
  "location": "Firenze",
  "city": "Berlin",
  "description": ""
  },
  {
  "id": 112,
  "name": "Orta Therox",
  "twitter": "@orta",
  "birthCountry": "ğŸ‡¬ğŸ‡§",
  "year": 2015,
  "event": "Pragma Conf",
  "location": "Firenze",
  "city": "New York",
  "description": ""
  },
  {
  "id": 113,
  "name": "Dave DeLong",
  "twitter": "@davedelong",
  "birthCountry": "ğŸ‡ºğŸ‡¸",
  "year": 2014,
  "event": "WWDC 2014",
  "location": "San Francisco",
  "city": "Salt Lake City",
  "description": ""
  },
  {
  "id": 114,
  "name": "Ash Furrow",
  "twitter": "@ashfurrow",
  "birthCountry": "ğŸ‡¨ğŸ‡¦",
  "year": 2015,
  "event": "Pragma Conf",
  "location": "Firenze",
  "city": "New York",
  "description": ""
  },
  {
  "id": 115,
  "name": "Tim Cook",
  "twitter": "@tim_cook",
  "birthCountry": "ğŸ‡ºğŸ‡¸",
  "year": 2014,
  "event": "WWDC 2014",
  "location": "San Francisco",
  "city": "San Francisco",
  "description": "You probably know who this guy is. I met him during WWDC 2014."
  },
  {
  "id": 116,
  "name": "Matthias Tretter",
  "twitter": "@myell0w",
  "birthCountry": "ğŸ‡¦ğŸ‡¹",
  "year": 2016,
  "event": "Pragma Conf",
  "location": "Verona",
  "city": "Wien",
  "description": ""
  },
  {
  "id": 117,
  "name": "Javier Soto",
  "twitter": "@javi",
  "birthCountry": "ğŸ‡ªğŸ‡¸",
  "year": 2014,
  "event": "WWDC 2014",
  "location": "San Francisco",
  "city": "Berkeley",
  "description": ""
  },
  {
  "id": 118,
  "name": "Matthew Panzer",
  "twitter": "@MattPanzer100",
  "birthCountry": "ğŸ‡ºğŸ‡¸",
  "year": 2014,
  "event": "WWDC 2014",
  "location": "San Francisco",
  "city": "New York",
  "description": ""
  },
  {
  "id": 119,
  "name": "John H. Meyer",
  "twitter": "@beastmode",
  "birthCountry": "ğŸ‡ºğŸ‡¸",
  "year": 2014,
  "event": "WWDC 2014",
  "location": "San Francisco",
  "city": "New York",
  "description": ""
  },
  {
  "id": 120,
  "name": "Jake Behrens",
  "twitter": "@behrens",
  "birthCountry": "ğŸ‡ºğŸ‡¸",
  "year": 2015,
  "event": "Pragma Conf",
  "location": "Firenze",
  "city": "San Francisco",
  "description": ""
  },
  {
  "id": 121,
  "name": "Stephan Rabanser",
  "twitter": "@steverab",
  "birthCountry": "ğŸ‡©ğŸ‡ª",
  "year": 2016,
  "event": "",
  "location": "Berlin",
  "city": "Munich",
  "description": ""
  },
  {
  "id": 122,
  "name": "Danielle Tomlinson",
  "twitter": "@dantoml",
  "birthCountry": "ğŸ‡¬ğŸ‡§",
  "year": 2015,
  "event": "NSConf 7",
  "location": "Leicester",
  "city": "Berlin",
  "description": ""
  },
  {
  "id": 123,
  "name": "Oliver Drobnik",
  "twitter": "@Cocoanetics",
  "birthCountry": "ğŸ‡¦ğŸ‡¹",
  "year": 2015,
  "event": "Pragma Conf",
  "location": "Firenze",
  "city": "Wien",
  "description": ""
  },
  {
  "id": 124,
  "name": "Krzysztof ZabÅ‚ocki",
  "twitter": "@merowing_",
  "birthCountry": "ğŸ‡µğŸ‡±",
  "year": 2016,
  "event": "Pragma Conf",
  "location": "Verona",
  "city": "Krakow",
  "description": ""
  },
  {
  "id": 125,
  "name": "Jony Ive",
  "twitter": "@JonyIveParody",
  "birthCountry": "ğŸ‡¬ğŸ‡§",
  "year": 2014,
  "event": "WWDC 2014",
  "location": "San Francisco",
  "city": "San Francisco",
  "description": ""
  },
  {
  "id": 126,
  "name": "Craig Federighi",
  "twitter": "@_HairForceOne",
  "birthCountry": "ğŸ‡ºğŸ‡¸",
  "year": 2014,
  "event": "WWDC 2014",
  "location": "San Francisco",
  "city": "San Francisco",
  "description": ""
  },
  {
  "id": 127,
  "name": "Alex Telek",
  "twitter": "",
  "birthCountry": "ğŸ‡¬ğŸ‡§",
  "year": 2014,
  "event": "WWDC 2014",
  "location": "San Francisco",
  "city": "London",
  "description": ""
  },
  {
  "id": 128,
  "name": "Marcello Romanelli",
  "twitter": "",
  "birthCountry": "ğŸ‡¨ğŸ‡­",
  "year": 2013,
  "event": "USI",
  "location": "Lugano",
  "city": "Zurich",
  "description": ""
  },
  {
  "id": 129,
  "name": "Peter Schreuder",
  "twitter": "@PSchreuder",
  "birthCountry": "ğŸ‡³ğŸ‡±",
  "year": 2014,
  "event": "WWDC 2014",
  "location": "San Francisco",
  "city": "Amsterdam",
  "description": ""
  },
  {
  "id": 130,
  "name": "Kevin Bijelic",
  "twitter": "",
  "birthCountry": "ğŸ‡¨ğŸ‡­",
  "year": 2015,
  "event": "HackZurich Hackathon",
  "location": "Zurich",
  "city": "Zug",
  "description": ""
  },
  {
  "id": 131,
  "name": "Bastian Morath",
  "twitter": "",
  "birthCountry": "ğŸ‡¨ğŸ‡­",
  "year": 2012,
  "event": "",
  "location": "Fribourg",
  "city": "Zurich",
  "description": ""
  },
  {
  "id": 134,
  "name": "Jaxon Stevens",
  "twitter": "@jaxonkstevens",
  "birthCountry": "ğŸ‡¨ğŸ‡¦",
  "year": 2014,
  "event": "WWDC 2014",
  "location": "San Francisco",
  "city": "Vancouver",
  "description": ""
  },
  {
  "id": 135,
  "name": "Alessio Bagutti",
  "twitter": "",
  "birthCountry": "ğŸ‡®ğŸ‡¹",
  "year": 2015,
  "event": "USI",
  "location": "Lugano",
  "city": "Lugano",
  "description": ""
  },
  {
  "id": 136,
  "name": "Harrison Weinerman",
  "twitter": "@hrrsn",
  "birthCountry": "ğŸ‡ºğŸ‡¸",
  "year": 2014,
  "event": "WWDC 2014",
  "location": "San Francisco",
  "city": "New Jersey",
  "description": ""
  },
  {
  "id": 137,
  "name": "Luigi Frunzio",
  "twitter": "",
  "birthCountry": "ğŸ‡®ğŸ‡¹",
  "year": 2015,
  "event": "USI",
  "location": "Lugano",
  "city": "Lugano",
  "description": ""
  },
  {
  "id": 138,
  "name": "Simone Dâ€™Avico",
  "twitter": "",
  "birthCountry": "ğŸ‡®ğŸ‡¹",
  "year": 2015,
  "event": "USI",
  "location": "Lugano",
  "city": "Lugano",
  "description": ""
  },
  {
  "id": 139,
  "name": "Yann Cuttaz",
  "twitter": "",
  "birthCountry": "ğŸ‡¨ğŸ‡­",
  "year": 2014,
  "event": "",
  "location": "Bellinzona",
  "city": "Giubiasco",
  "description": ""
  },
  {
  "id": 140,
  "name": "Daniel Steinberg",
  "twitter": "@dimsumthinking",
  "birthCountry": "ğŸ‡ºğŸ‡¸",
  "year": 2016,
  "event": "App Builders",
  "location": "Zurich",
  "city": "Shaker Heights",
  "description": ""
  },
  {
  "id": 141,
  "name": "Kevin Goldsmith",
  "twitter": "@KevinGoldsmith",
  "birthCountry": "ğŸ‡ºğŸ‡¸",
  "year": 2016,
  "event": "App Builders",
  "location": "Zurich",
  "city": "Seattle",
  "description": ""
  },
  {
  "id": 142,
  "name": "Vitaly Friedman",
  "twitter": "@smashingmag",
  "birthCountry": "ğŸ‡©ğŸ‡ª",
  "year": 2016,
  "event": "App Builders",
  "location": "Zurich",
  "city": "Freiburg",
  "description": ""
  },
  {
  "id": 143,
  "name": "Cesar Valiente",
  "twitter": "@CesarValiente",
  "birthCountry": "ğŸ‡ªğŸ‡¸",
  "year": 2016,
  "event": "App Builders",
  "location": "Zurich",
  "city": "Berlin",
  "description": ""
  },
  {
  "id": 144,
  "name": "Andreas Vourkos",
  "twitter": "@vourkosa",
  "birthCountry": "ğŸ‡¬ğŸ‡·",
  "year": 2016,
  "event": "App Builders",
  "location": "Zurich",
  "city": "San Francisco",
  "description": ""
  },
  {
  "id": 145,
  "name": "Lorica Claesson",
  "twitter": "@lorica",
  "birthCountry": "ğŸ‡¸ğŸ‡ª",
  "year": 2016,
  "event": "App Builders",
  "location": "Zurich",
  "city": "Zurich",
  "description": ""
  },
  {
  "id": 146,
  "name": "Frederik Riedel",
  "twitter": "",
  "birthCountry": "ğŸ‡©ğŸ‡ª",
  "year": 2014,
  "event": "WWDC 2014",
  "location": "San Francisco",
  "city": "Stuttgart",
  "description": ""
  },
  {
  "id": 147,
  "name": "Marco Primi",
  "twitter": "",
  "birthCountry": "ğŸ‡®ğŸ‡¹",
  "year": 2014,
  "event": "WWDC 2014",
  "location": "San Francisco",
  "city": "San Francisco",
  "description": ""
  },
  {
  "id": 148,
  "name": "Sergi Martinez",
  "twitter": "@SergiAndReplace",
  "birthCountry": "ğŸ‡ªğŸ‡¸",
  "year": 2016,
  "event": "App Builders",
  "location": "Zurich",
  "city": "Barcelona",
  "description": ""
  },
  {
  "id": 149,
  "name": "Sangsoo Nam",
  "twitter": "@sangsoonam",
  "birthCountry": "ğŸ‡°ğŸ‡·",
  "year": 2016,
  "event": "App Builders",
  "location": "Zurich",
  "city": "Stockholm",
  "description": ""
  }
  ]
